City_ID,City,Lat,Lng,Max Temp,Humidity,Cloudiness,Wind Speed,Country,Date
0,west island,-12.1568,96.8225,28.99,74,75,6.69,CC,1714970113
1,butterworth,5.3991,100.3638,32.03,66,20,3.6,MY,1714970113
2,kapa'a,22.0752,-159.319,26.99,82,20,7.2,US,1714970114
3,vilyuchinsk,52.9306,158.4028,7.15,72,51,3.5,RU,1714970114
4,tlaltenango de sanchez roman,21.7833,-103.3167,20.16,25,91,1.64,MX,1714970114
5,adamstown,-25.066,-130.1015,21.57,71,67,9.45,PN,1714970114
6,sisimiut,66.9395,-53.6735,-9.44,89,63,3.54,GL,1714969880
7,thompson,55.7435,-97.8558,4.09,75,20,1.54,CA,1714970115
8,port-aux-francais,-49.35,70.2167,5.84,79,88,12.57,TF,1714970115
9,iqaluit,63.7506,-68.5145,-4.15,86,100,5.66,CA,1714970115
10,enewetak,11.3474,162.3373,27.74,76,28,7.32,MH,1714970115
11,papatowai,-46.5619,169.4708,7.54,63,74,5.21,NZ,1714970115
12,rongelap,11.1635,166.8941,27.61,80,68,7.85,MH,1714970115
13,beledweyne,4.7358,45.2036,28.13,67,69,4.93,SO,1714970116
14,walvis bay,-22.9575,14.5053,11.53,93,100,0.51,NA,1714970116
15,fisterra,42.9049,-9.2629,8.19,76,3,1.52,ES,1714970116
16,alice springs,-23.7,133.8833,20.75,37,15,6.17,AU,1714970116
17,edinburgh of the seven seas,-37.0676,-12.3116,13.79,62,80,14.47,SH,1714970116
18,benjamin aceval,-24.9667,-57.5667,27.08,67,0,2.64,PY,1714970116
19,bredasdorp,-34.5322,20.0403,11.92,58,92,3.34,ZA,1714970117
20,mahajanga,-15.7167,46.3167,24.01,69,20,2.57,MG,1714970117
21,terra nova,-12.3667,-40.6667,20.2,99,93,1.2,BR,1714970117
22,waitangi,-43.9535,-176.5597,13.23,84,73,1.79,NZ,1714970117
23,kiunga,-6.1219,141.2906,26.84,84,100,1.0,PG,1714970117
24,crane,31.3974,-102.3501,21.91,81,3,6.69,US,1714970117
25,st. john's,47.5649,-52.7093,0.66,93,0,5.66,CA,1714970117
26,badger,64.8,-147.5333,15.14,34,100,6.17,US,1714970118
27,ushuaia,-54.8,-68.3,2.81,93,100,5.66,AR,1714970118
28,albany,42.6001,-73.9662,11.56,84,100,0.45,US,1714969802
29,longyearbyen,78.2186,15.6401,-4.09,63,75,3.09,SJ,1714970118
30,tolanaro,-25.0319,46.9987,23.04,73,40,5.14,MG,1714970118
31,i-n-salah,27.1935,2.4607,26.87,12,0,8.41,DZ,1714970118
32,belmonte,-15.8631,-38.8828,26.48,72,43,4.02,BR,1714970119
33,pali,25.7667,73.3333,35.02,29,0,2.97,IN,1714970119
34,blackmans bay,-43.0167,147.3167,15.41,58,27,0.45,AU,1714970119
35,shalqar,47.8333,59.6,13.04,32,100,4.61,KZ,1714970119
36,waingapu,-9.6567,120.2641,29.69,67,29,6.67,ID,1714970119
37,lebu,-37.6167,-73.65,11.07,79,95,7.51,CL,1714970119
38,hawaiian paradise park,19.5933,-154.9731,22.73,88,100,2.06,US,1714970119
39,pontotoc,34.2479,-88.9987,20.78,94,100,2.28,US,1714970120
40,turtas,58.9417,69.1325,2.06,60,16,3.7,RU,1714970120
41,kasungu,-13.0333,33.4833,18.21,82,12,2.32,MW,1714970120
42,beira,-19.8436,34.8389,19.05,94,100,1.54,MZ,1714970120
43,madang,-5.2246,145.7966,26.48,94,100,2.57,PG,1714970120
44,bethel,41.3712,-73.414,10.76,89,100,0.73,US,1714970120
45,tiksi,71.6872,128.8694,0.46,93,43,2.43,RU,1714970121
46,avarua,-21.2078,-159.775,27.03,89,75,6.17,CK,1714970121
47,vorgashor,67.5833,63.95,-11.41,92,100,1.63,RU,1714970121
48,port alfred,-33.5906,26.891,22.32,40,16,5.27,ZA,1714970121
49,bealanana,-14.55,48.7333,17.81,87,70,2.36,MG,1714970121
50,nemuro,43.3236,145.575,8.98,86,100,1.56,JP,1714970122
51,cruzeiro do sul,-29.5128,-51.9853,22.82,94,63,1.84,BR,1714970122
52,olonkinbyen,70.9221,-8.7187,0.85,90,100,12.74,SJ,1714970122
53,emiliano zapata,18.8333,-99.1833,25.0,47,100,1.58,MX,1714969946
54,kapuskasing,49.4169,-82.4331,8.05,71,100,3.6,CA,1714970122
55,chebba,35.2372,11.115,18.43,73,8,5.04,TN,1714970122
56,bathsheba,13.2167,-59.5167,28.34,83,20,8.23,BB,1714970123
57,kotabumi,-4.8333,104.9,30.78,70,16,0.9,ID,1714970123
58,grytviken,-54.2811,-36.5092,2.12,83,49,3.11,GS,1714970123
59,qaqortoq,60.7167,-46.0333,-1.14,64,0,2.21,GL,1714970123
60,college,64.8569,-147.8028,15.18,39,75,6.17,US,1714970123
61,udachny,66.4167,112.4,-0.31,81,87,5.54,RU,1714970124
62,alghero,40.5589,8.3181,8.05,93,0,0.51,IT,1714970124
63,flying fish cove,-10.4217,105.6791,27.82,78,100,5.66,CX,1714970124
64,princeville,45.7668,-61.2985,4.68,85,0,2.06,CA,1714970124
65,praia da vitoria,38.7333,-27.0667,18.14,100,75,7.39,PT,1714970124
66,labuan bajo,-8.4964,119.8877,29.87,67,27,2.15,ID,1714970124
67,bikenibeu village,1.3673,173.1241,29.98,74,75,2.06,KI,1714970125
68,cova figueira,14.8905,-24.2934,18.91,68,44,3.11,CV,1714970125
69,punta arenas,-53.15,-70.9167,3.06,70,75,3.6,CL,1714969869
70,mount pleasant,32.7941,-79.8626,23.89,92,0,3.6,US,1714969839
71,port mathurin,-19.6833,63.4167,26.18,61,1,9.05,MU,1714970125
72,nuuk,64.1835,-51.7216,-4.66,74,1,7.2,GL,1714970125
73,buulobarde,3.8538,45.5674,26.52,80,99,5.35,SO,1714970126
74,utrik,11.2278,169.8474,27.57,79,85,7.08,MH,1714970126
75,hermanus,-34.4187,19.2345,13.96,74,25,4.79,ZA,1714970126
76,tazovsky,67.4667,78.7,-4.75,91,100,5.47,RU,1714969941
77,constantia,44.1833,28.65,11.5,70,12,5.09,RO,1714970057
78,oban,56.4127,-5.4706,10.77,95,99,1.32,GB,1714970126
79,huarmey,-10.0681,-78.1522,19.77,89,75,3.91,PE,1714970126
80,acara,-1.9608,-48.1967,23.84,99,100,1.03,BR,1714970127
81,petropavlovsk-kamchatsky,53.0452,158.6483,6.33,78,75,3.58,RU,1714969942
82,talnakh,69.4865,88.3972,-5.44,65,100,1.02,RU,1714970127
83,ilulissat,69.2167,-51.1,-6.99,79,100,5.14,GL,1714970127
84,vilhena,-12.7406,-60.1458,22.22,79,10,1.62,BR,1714970127
85,levanger,63.7464,11.2996,8.03,66,62,4.02,NO,1714970127
86,kerikeri,-35.2268,173.9474,17.73,85,60,0.45,NZ,1714970128
87,luza,60.6308,47.2512,0.88,74,100,5.14,RU,1714970128
88,westport,41.1415,-73.3579,12.53,92,100,2.06,US,1714970128
89,hammerfest,70.6634,23.6821,-0.75,74,75,3.09,NO,1714970128
90,nahiyat ash shinafiyah,31.5874,44.6602,27.46,36,9,9.95,IQ,1714970128
91,port douglas,-16.4833,145.4667,26.28,71,97,5.12,AU,1714970128
92,margaret river,-33.95,115.0667,21.06,50,31,3.63,AU,1714970128
93,tabas,33.5959,56.9244,28.34,19,1,1.22,IR,1714970129
94,invercargill,-46.4,168.35,8.9,66,61,2.68,NZ,1714970129
95,hamilton,39.1834,-84.5333,19.43,88,0,0.0,US,1714969993
96,anadyr,64.75,177.4833,-1.72,64,0,3.0,RU,1714970129
97,port elizabeth,-33.918,25.5701,16.16,59,0,3.6,ZA,1714970129
98,taulaga,-11.0553,-171.0883,29.72,75,78,2.97,AS,1714970129
99,weno,7.4515,151.8468,31.97,70,40,3.6,FM,1714970130
100,bilibino,68.0546,166.4372,0.43,79,12,0.98,RU,1714969942
101,inhambane,-23.865,35.3833,15.99,100,40,0.0,MZ,1714970130
102,kenai,60.5544,-151.2583,8.41,84,100,6.17,US,1714970130
103,al burayqah,30.4062,19.5739,17.65,72,0,3.44,LY,1714970130
104,zaozersk,69.4005,32.4476,-1.93,93,100,3.15,RU,1714970130
105,kununurra,-15.7667,128.7333,31.99,33,43,5.66,AU,1714970130
106,pakokku,21.3333,95.1,34.47,32,12,3.63,MM,1714970131
107,wailua homesteads,22.0669,-159.378,26.24,82,20,7.2,US,1714970131
108,yellowknife,62.456,-114.3525,8.29,73,20,4.63,CA,1714970131
109,tsengel,49.4783,100.8894,21.58,21,48,2.8,MN,1714970131
110,necochea,-38.5473,-58.7368,14.21,48,100,3.89,AR,1714970131
111,puerto ayora,-0.7393,-90.3518,22.53,97,39,2.74,EC,1714969884
112,puerto natales,-51.7236,-72.4875,-2.16,87,61,1.52,CL,1714969883
113,monjaras,13.2006,-87.3742,28.64,74,31,1.06,HN,1714970132
114,tazacorte,28.629,-17.9293,18.54,77,40,5.14,ES,1714970132
115,puerto baquerizo moreno,-0.9,-89.6,22.89,89,37,3.27,EC,1714969931
116,gaalkacyo,6.7697,47.4308,28.71,67,52,4.43,SO,1714970132
117,sangkhla buri,15.1555,98.4536,38.94,25,0,1.96,TH,1714970132
118,palikir - national government center,6.9248,158.1611,29.47,84,100,3.09,FM,1714970133
119,howrah,22.5892,88.3103,34.0,66,40,6.17,IN,1714970133
120,hami,42.8,93.45,32.93,4,100,8.09,CN,1714970133
121,bataipora,-22.2953,-53.2711,20.85,45,0,2.87,BR,1714970133
122,tura,25.5198,90.2201,33.08,42,14,2.88,IN,1714970134
123,kalmunai,7.4167,81.8167,32.38,64,50,3.11,LK,1714970134
124,atafu village,-8.5421,-172.5159,29.79,75,26,3.81,TK,1714970134
125,hilo,19.7297,-155.09,24.6,86,100,2.06,US,1714969838
126,ebolowa,2.9,11.15,21.68,100,38,0.85,CM,1714970134
127,sandnessjoen,66.0217,12.6316,8.06,49,0,3.6,NO,1714970135
128,coos bay,43.3665,-124.2179,10.59,93,100,4.12,US,1714969863
129,vadso,70.0744,29.7487,-0.51,81,96,8.09,NO,1714970135
130,whitehorse,60.7161,-135.0538,5.45,86,75,3.6,CA,1714970064
131,sao gabriel da cachoeira,-0.1303,-67.0892,23.65,99,100,0.82,BR,1714970135
132,isafjordur,66.0755,-23.124,1.04,84,20,5.68,IS,1714970135
133,fort stockton,30.894,-102.8793,22.09,81,0,7.2,US,1714970135
134,rio preto da eva,-2.6994,-59.6997,24.22,99,100,0.53,BR,1714970136
135,nogliki,51.8333,143.1667,1.3,75,35,5.36,RU,1714970136
136,hutchinson,38.0608,-97.9298,15.29,89,100,5.66,US,1714970017
137,gan,43.2333,-0.3833,9.79,94,75,3.09,FR,1714970136
138,dem'yanovo,60.3511,47.0842,0.91,77,100,5.35,RU,1714970136
139,plettenberg bay,-34.0527,23.3716,14.01,74,2,1.68,ZA,1714970136
140,lagunas,-5.2269,-75.6753,23.85,92,98,0.89,PE,1714970136
141,luganville,-15.5333,167.1667,26.52,81,88,4.61,VU,1714970137
142,vilyuysk,63.7553,121.6247,2.78,85,99,4.47,RU,1714970137
143,parkersburg,39.2667,-81.5615,18.34,94,40,0.0,US,1714970001
144,remire-montjoly,4.9167,-52.2667,27.02,94,75,1.03,GF,1714970137
145,toba,34.4833,136.85,21.0,80,100,5.39,JP,1714970137
146,cidade velha,14.9167,-23.6167,23.26,60,20,3.09,CV,1714970137
147,justo daract,-33.8594,-65.1828,11.24,97,47,2.04,AR,1714970138
148,laguna,38.421,-121.4238,14.31,62,75,5.14,US,1714970138
149,lazaro cardenas,17.9583,-102.2,23.72,83,93,1.29,MX,1714970138
150,oros,-6.2444,-38.9136,23.0,77,87,1.14,BR,1714970138
151,dingtao,35.0683,115.5625,25.94,35,47,3.25,CN,1714970138
152,inda silase,14.1031,38.2829,23.98,15,25,1.21,ET,1714970138
153,newman,37.3138,-121.0208,13.13,73,23,0.89,US,1714970139
154,ribeira grande,38.5167,-28.7,18.76,96,100,8.49,PT,1714970139
155,astrakhan,46.3497,48.0408,12.93,50,0,3.0,RU,1714970139
156,qingyuan,23.7,113.0333,30.99,65,100,1.32,CN,1714970139
157,lihue,21.9789,-159.3672,26.58,76,20,7.2,US,1714970139
158,olyokminsk,60.3736,120.4264,7.13,90,99,1.46,RU,1714970140
159,hithadhoo,-0.6,73.0833,29.8,74,45,4.87,MV,1714970140
160,murzuq,25.9155,13.9184,23.88,26,99,5.44,LY,1714970140
161,fort bragg,35.139,-79.006,21.91,90,40,2.57,US,1714970140
162,hadibu,12.65,54.0333,30.1,71,83,2.0,YE,1714970141
163,bria,6.5423,21.9863,24.07,54,3,0.81,CF,1714970141
164,las palmas,28.4204,-14.0131,17.44,82,100,6.17,ES,1714970141
165,albesti-paleologu,44.95,26.2167,13.12,90,6,1.77,RO,1714970141
166,uturoa,-16.7333,-151.4333,28.12,79,9,9.0,PF,1714970141
167,aral,40.5156,81.2636,29.44,10,36,1.65,CN,1714970141
168,puerto colombia,10.9878,-74.9547,29.05,82,100,2.78,CO,1714970141
169,ulsteinvik,62.3432,5.8487,9.31,94,77,0.45,NO,1714970142
170,portland,45.5234,-122.6762,10.34,89,93,4.02,US,1714970081
171,nova olinda do norte,-3.8881,-59.0942,23.91,99,32,0.7,BR,1714970142
172,linxia chengguanzhen,35.6003,103.2064,20.75,16,50,2.38,CN,1714970142
173,upington,-28.4478,21.2561,19.21,32,0,2.06,ZA,1714970142
174,hatillo,18.4863,-66.8254,25.85,91,71,1.37,PR,1714970142
175,banamba,13.55,-7.45,27.67,12,39,3.13,ML,1714970143
176,tavda,58.0425,65.2726,1.5,70,14,3.13,RU,1714969940
177,puerto aysen,-45.4,-72.7,1.54,99,100,1.73,CL,1714969901
178,diego de almagro,-26.3667,-70.05,14.25,51,79,0.23,CL,1714969892
179,cabedelo,-6.9811,-34.8339,24.37,84,41,4.57,BR,1714970143
180,mitsamiouli,-11.3847,43.2844,28.03,71,100,2.64,KM,1714970144
181,luderitz,-26.6481,15.1594,15.94,63,0,2.87,NA,1714970144
182,antofagasta,-23.65,-70.4,14.6,88,45,2.52,CL,1714969764
183,al ghayzah,16.2079,52.176,30.72,70,33,5.55,YE,1714970144
184,jamestown,42.097,-79.2353,16.68,98,100,2.06,US,1714969845
185,bac lieu,9.285,105.7244,32.56,56,39,5.6,VN,1714970144
186,kitimat,54.0524,-128.6534,8.28,76,100,1.79,CA,1714970145
187,ilomantsi,62.6716,30.9328,-1.28,61,14,2.22,FI,1714970145
188,boyolangu,-8.1181,111.8935,28.3,67,41,4.36,ID,1714970145
189,bahia de kino,28.8333,-111.9333,23.29,47,6,2.88,MX,1714970145
190,ziniare,12.5822,-1.2983,33.02,47,67,5.33,BF,1714970145
191,fale old settlement,-9.3852,-171.2468,29.74,76,73,3.43,TK,1714970145
192,stanley,54.868,-1.6985,10.71,97,75,2.06,GB,1714970145
193,lae,-6.7221,146.9847,28.37,92,100,0.34,PG,1714970146
194,daulatpur,26.5015,67.9706,38.94,20,0,3.51,PK,1714970146
195,pangody,65.85,74.4859,-4.92,90,100,8.42,RU,1714969942
196,bonthe,7.5264,-12.505,27.18,85,100,1.51,SL,1714970146
197,iskateley,67.6803,53.1512,-7.21,88,93,1.79,RU,1714970146
198,barabai,-2.5833,115.3833,33.42,55,100,0.36,ID,1714970147
199,kodiak,57.79,-152.4072,6.73,70,75,3.6,US,1714970147
200,bogale,16.2833,95.4,37.84,32,0,3.56,MM,1714970147
201,bereznik,62.8551,42.7072,0.5,50,14,3.01,RU,1714970147
202,aldan,58.6031,125.3894,10.91,63,64,3.42,RU,1714970147
203,egilsstadir,65.2653,-14.3948,3.95,70,75,4.63,IS,1714970147
204,keflavik,64.0049,-22.5624,2.24,93,75,8.23,IS,1714970148
205,ancud,-41.8697,-73.8203,9.44,81,94,9.03,CL,1714969896
206,souillac,-20.5167,57.5167,22.21,94,40,6.17,MU,1714970148
207,namibe,-15.1961,12.1522,22.12,73,5,3.37,AO,1714970148
208,amga,60.8953,131.9608,11.86,45,68,2.43,RU,1714970148
209,pisco,-13.7,-76.2167,19.03,88,0,2.06,PE,1714970041
210,mount gambier,-37.8333,140.7667,17.64,51,0,4.99,AU,1714970149
211,maych'ew,12.7875,39.5422,17.33,62,9,1.81,ET,1714970149
212,xai-xai,-25.0519,33.6442,17.65,86,1,3.02,MZ,1714969924
213,ust-nera,64.5667,143.2,3.82,71,96,1.64,RU,1714970149
214,saint-pierre,-21.3393,55.4781,23.82,43,0,2.57,RE,1714970149
215,loen,7.7601,168.2307,28.49,79,66,8.23,MH,1714970149
216,honjo,36.2333,139.1833,22.75,41,100,1.14,JP,1714970149
217,uliastay,47.7417,96.8444,21.04,12,10,6.42,MN,1714970150
218,dompu,-8.5356,118.4622,31.7,56,39,3.76,ID,1714970150
219,cabo san lucas,22.8909,-109.9124,26.61,57,100,2.24,MX,1714969880
220,lompoc,34.6391,-120.4579,10.89,79,0,7.2,US,1714970150
221,zaragoza,41.6561,-0.8773,16.12,78,20,1.54,ES,1714970055
222,kruisfontein,-34.0033,24.7314,13.92,79,0,3.38,ZA,1714970150
223,yuzhno-kurilsk,44.0306,145.8556,9.1,96,100,2.81,RU,1714970150
224,berbera,10.4396,45.0143,30.42,73,50,4.08,SO,1714970151
225,susuman,62.7833,148.1667,0.55,61,84,1.34,RU,1714970151
226,gizo,-8.103,156.8419,29.34,74,78,0.92,SB,1714970151
227,cooma,-36.2333,149.1333,13.8,49,80,2.88,AU,1714970151
228,fuerte olimpo,-21.0415,-57.8738,26.99,49,2,3.05,PY,1714970151
229,sompeta,18.9333,84.6,36.3,51,10,8.85,IN,1714970151
230,tomatlan,19.9333,-105.25,19.33,98,100,0.49,MX,1714970152
231,minas de marcona,-15.2119,-75.1103,15.39,90,85,5.47,PE,1714969945
232,brookings,44.3114,-96.7984,13.43,73,0,6.69,US,1714969870
233,ak-suu,42.4995,78.527,14.74,63,100,4.15,KG,1714970152
234,aparecida do taboado,-20.0867,-51.0936,20.99,57,0,3.45,BR,1714970152
235,mahina,-17.5065,-149.489,28.87,65,75,4.63,PF,1714970152
236,pyay,18.8167,95.2167,39.05,27,0,1.39,MM,1714970152
237,nova vicosa,-17.8919,-39.3719,24.31,89,5,1.68,BR,1714970153
238,polyarnyy,69.1989,33.4478,-1.3,73,100,8.65,RU,1714970153
239,knysna,-34.0363,23.0471,14.06,79,2,1.71,ZA,1714970153
240,coari,-4.085,-63.1414,24.09,98,96,0.88,BR,1714970153
241,smithers,54.7804,-127.1743,9.18,87,100,2.06,CA,1714970153
242,tshabong,-26.05,22.45,16.91,41,0,4.23,BW,1714970153
243,buala,-8.145,159.5921,29.69,73,62,1.69,SB,1714970154
244,ormara,25.2088,64.6357,28.06,76,0,6.38,PK,1714970154
245,mil'kovo,55.6078,37.7956,5.27,61,44,3.11,RU,1714970154
246,oranjemund,-28.55,16.4333,14.14,69,0,2.45,NA,1714970154
247,upata,8.0086,-62.3989,25.66,90,79,2.2,VE,1714970154
248,pontianak,-0.0333,109.3333,31.99,66,40,2.57,ID,1714970154
249,fengkou,30.0833,113.2667,26.17,62,100,4.36,CN,1714970155
250,sorel-tracy,46.0334,-73.1159,11.29,96,100,4.64,CA,1714969925
251,haiku-pauwela,20.9219,-156.3051,23.45,72,20,9.77,US,1714970155
252,klyuchi,52.2667,79.1667,10.38,36,0,5.61,RU,1714970155
253,jieshi,22.8134,115.8257,27.23,78,100,3.57,CN,1714970155
254,la ronge,55.1001,-105.2842,8.14,53,20,2.06,CA,1714970155
255,popondetta,-8.7537,148.2534,29.17,83,75,1.8,PG,1714970156
256,berezovyy,51.6667,135.7,10.33,41,95,4.17,RU,1714970156
257,aqaba,29.5267,35.0078,19.92,49,0,2.06,JO,1714969956
258,pago pago,-14.2781,-170.7025,28.55,79,75,4.12,AS,1714970156
259,sao desiderio,-12.3633,-44.9733,20.46,87,21,1.3,BR,1714970156
260,sansanne-mango,10.3592,0.4708,28.07,70,42,4.32,TG,1714970157
261,mabaruma,8.2,-59.7833,23.77,94,95,0.28,GY,1714970157
262,ust'-kut,56.7938,105.7672,21.91,29,95,6.71,RU,1714969940
263,kone,-21.0595,164.8658,25.61,57,93,2.6,NC,1714970157
264,carnarvon,-24.8667,113.6333,23.84,46,0,8.97,AU,1714970157
265,sinabang,2.4803,96.3801,31.42,65,69,0.46,ID,1714970157
266,pechora,65.1472,57.2244,-3.97,77,26,1.34,RU,1714970158
267,chishmy,54.5765,55.3764,9.13,92,100,11.37,RU,1714970158
268,taltal,-25.4,-70.4833,16.14,78,90,0.29,CL,1714969877
269,aasiaat,68.7098,-52.8699,-15.34,97,82,2.62,GL,1714970158
270,beypazari,40.1675,31.9211,6.27,42,0,0.89,TR,1714970158
271,shushtar,32.0455,48.8567,25.35,53,100,2.24,IR,1714970159
272,ta`u,-14.2336,-169.5144,28.45,81,94,4.45,AS,1714970159
273,revda,56.801,59.9303,2.49,91,100,5.41,RU,1714970159
274,mana,5.6592,-53.7767,26.73,84,83,4.65,GF,1714970159
275,belyy yar,53.6039,91.3903,10.94,87,40,4.0,RU,1714970159
276,sitka,57.0531,-135.33,7.94,71,75,3.6,US,1714970160
277,zheleznogorsk-ilimskiy,56.5768,104.1217,22.98,30,99,7.15,RU,1714970160
278,butte,39.6499,-121.5677,14.01,56,20,2.06,US,1714970160
279,port saint john's,-31.6229,29.5448,20.84,43,0,3.6,ZA,1714970160
280,medina,24.4686,39.6142,25.24,20,0,2.06,SA,1714970056
281,jiangyou,31.7667,104.7167,26.99,45,66,3.43,CN,1714970160
282,acapulco de juarez,16.8634,-99.8901,26.9,83,40,2.57,MX,1714969927
283,mont-dore,-22.2833,166.5833,25.99,64,73,5.05,NC,1714970161
284,norilsk,69.3535,88.2027,-5.32,71,100,1.4,RU,1714970161
285,lichinga,-13.3128,35.2406,16.05,94,20,3.6,MZ,1714970161
286,fortaleza,-3.7227,-38.5247,27.34,94,75,3.6,BR,1714970161
287,lorengau,-2.0226,147.2712,29.55,76,98,4.38,PG,1714970162
288,harstad,68.799,16.5293,1.25,84,6,8.05,NO,1714970162
289,naracoorte,-36.9579,140.7383,20.49,34,0,4.66,AU,1714970162
290,chonchi,-42.6128,-73.8092,6.18,97,98,1.36,CL,1714970162
291,ventnor,50.5948,-1.2037,10.81,95,71,4.04,GB,1714970162
292,port hedland,-20.3167,118.5667,34.03,24,36,7.72,AU,1714970162
293,port lincoln,-34.7333,135.8667,16.84,70,1,4.46,AU,1714970163
294,verkhnevilyuysk,63.4453,120.3167,3.02,88,100,0.82,RU,1714970163
295,sudak,44.85,34.9667,10.5,36,0,0.35,UA,1714970163
296,orenburg,51.7727,55.0988,9.01,43,71,9.79,RU,1714970163
297,kez,57.8979,53.7152,1.73,98,100,3.46,RU,1714970163
298,ta'izz,13.5,44.0,22.08,77,41,0.7,YE,1714970163
299,porbandar,21.6422,69.6093,30.99,70,0,4.63,IN,1714970164
300,al qusiyah,27.4402,30.8184,17.15,56,0,4.21,EG,1714970164
301,georgetown,5.4112,100.3354,31.97,66,20,3.6,MY,1714970069
302,zemio,5.0314,25.1361,24.06,69,29,0.91,CF,1714970164
303,northfield,44.4583,-93.1616,14.36,76,0,0.0,US,1714970164
304,nema,57.5067,50.5011,2.07,98,100,3.6,RU,1714970165
305,columbus,39.9612,-82.9988,19.11,85,40,3.6,US,1714969740
306,nova sintra,14.8667,-24.7167,23.46,78,20,7.84,CV,1714970165
307,gadebusch,53.7,11.1167,10.5,77,83,4.56,DE,1714970165
308,lyantor,61.6195,72.1555,-2.21,77,40,6.54,RU,1714970165
309,paratinga,-12.6906,-43.1842,22.18,78,3,1.12,BR,1714970166
310,sona,45.4388,10.8255,15.14,93,0,1.03,IT,1714970166
311,adam,22.3756,57.5233,30.56,59,56,2.18,OM,1714970166
312,nishinoomote,30.7333,131.0,23.31,94,75,6.17,JP,1714970166
313,kailua-kona,19.6406,-155.9956,25.98,80,75,5.14,US,1714970166
314,san patricio,28.017,-97.5169,26.02,86,78,5.57,US,1714970166
315,tromso,69.6496,18.957,1.01,69,100,3.09,NO,1714970167
316,tapejara,-28.0681,-52.0139,18.22,92,3,2.01,BR,1714970167
317,martil,35.6166,-5.2752,18.98,72,40,4.63,MA,1714970167
318,mu'minobod,38.1085,70.0285,18.35,42,0,1.0,TJ,1714970167
319,jinchang,38.4953,102.1739,22.11,13,24,5.55,CN,1714969613
320,villa el carmen,11.9801,-86.5057,28.65,70,49,1.35,NI,1714970167
321,buka,40.8108,69.1986,23.08,52,12,1.48,UZ,1714970167
322,akureyri,65.6835,-18.0878,3.96,56,0,5.14,IS,1714969953
323,al kharj,24.155,47.3346,28.32,41,1,5.21,SA,1714970168
324,dunedin,-45.8742,170.5036,8.22,66,34,3.13,NZ,1714970168
325,jingmen,31.0336,112.2047,27.85,56,55,4.42,CN,1714970168
326,jwaneng,-24.6004,24.7303,13.99,41,1,2.68,BW,1714970168
327,saint-joseph,-21.3667,55.6167,23.21,68,13,5.78,RE,1714970168
328,cambridge,43.3601,-80.3127,13.27,82,0,2.06,CA,1714969984
329,jaffa,32.0504,34.7522,21.72,81,20,2.06,IL,1714970169
330,vanimo,-2.6741,141.3028,28.6,90,95,2.94,PG,1714970169
331,alaghsas,17.0187,8.0168,28.83,12,0,5.69,NE,1714970169
332,singkil,-7.9855,111.4161,30.27,58,5,3.07,ID,1714970169
333,inirida,3.8653,-67.9239,23.73,99,100,1.56,CO,1714970169
334,labytnangi,66.6572,66.4183,-8.12,81,32,2.91,RU,1714970170
335,la passe,45.5549,-0.8967,12.21,81,41,5.97,FR,1714970170
336,olinda,-8.0089,-34.8553,28.85,79,40,6.69,BR,1714969806
337,greenbrier,36.4276,-86.8047,20.46,97,100,1.54,US,1714970170
338,hafar al-batin,28.4328,45.9708,26.32,29,0,8.23,SA,1714970170
339,kuanda,56.3161,116.0806,18.89,32,50,0.99,RU,1714970170
340,happy valley-goose bay,53.3168,-60.3315,11.17,58,75,5.66,CA,1714969923
341,nosy varika,-20.5833,48.5333,22.13,75,71,2.02,MG,1714970171
342,santa terezinha,-29.9002,-50.0904,21.75,88,25,3.59,BR,1714970171
343,magnitogorsk,53.4186,59.0472,8.46,53,80,12.0,RU,1714969985
344,qianzhou,28.3167,109.7167,24.87,63,100,1.81,CN,1714970171
345,north platte,41.1239,-100.7654,15.14,84,20,8.94,US,1714970171
346,chibougamau,49.9168,-74.3659,3.79,100,40,1.03,CA,1714969938
347,katsuura,35.1333,140.3,20.81,77,100,9.22,JP,1714970172
348,libreville,0.3925,9.4537,25.01,94,20,3.09,GA,1714970172
349,korla,41.7597,86.1469,30.73,6,2,7.52,CN,1714970172
350,fortuna,40.5982,-124.1573,9.81,87,0,0.0,US,1714970172
351,scottburgh,-30.2867,30.7532,19.22,51,0,2.9,ZA,1714970172
352,melekeok village,7.4957,134.6367,30.31,70,75,3.6,PW,1714970172
353,alcaniz,41.05,-0.1333,14.67,70,74,3.01,ES,1714970173
354,mzimba,-11.9,33.6,17.92,89,47,3.49,MW,1714970173
355,lucapa,-8.4192,20.7447,17.2,68,1,1.77,AO,1714970173
356,aoulef,26.9667,1.0833,26.54,11,0,4.88,DZ,1714970173
357,kidal,18.4411,1.4078,31.24,20,67,3.05,ML,1714970173
358,emerald,-23.5333,148.1667,29.08,33,3,5.3,AU,1714970173
359,queenstown,-31.8976,26.8753,13.1,42,1,3.07,ZA,1714970174
360,bargaal,11.2864,51.0773,30.0,71,79,3.11,SO,1714970174
361,markaz-e hukumat-e darweshan,31.1323,64.1934,31.24,17,0,1.86,AF,1714970174
362,kabalo,-6.05,26.9167,21.16,80,90,1.47,CD,1714970174
363,mary,37.0,62.5,27.91,38,0,4.35,TM,1714970174
364,dudinka,69.4058,86.1778,-5.18,82,100,3.58,RU,1714970174
365,goth garelo,27.4352,68.0755,39.72,16,0,2.55,PK,1714970175
366,santa cruz,-17.8,-63.1667,24.7,94,20,5.14,BO,1714970157
367,tafuna,-14.3358,-170.72,28.97,79,75,4.12,AS,1714970175
368,uglegorsk,49.0833,142.0333,3.11,91,100,2.49,RU,1714970175
369,devils lake,48.1128,-98.8651,12.75,64,0,5.36,US,1714970175
370,kutum,14.2,24.6667,25.26,16,0,3.56,SD,1714970175
371,griffith,41.5284,-87.4237,11.61,86,0,0.0,US,1714970175
372,margate,51.3813,1.3862,11.84,89,27,0.89,GB,1714970176
373,thinadhoo,0.5333,72.9333,29.7,76,65,4.25,MV,1714970176
374,ogaminana,7.5946,6.2248,24.8,94,99,1.6,NG,1714970176
375,isaka,-3.9,32.9333,18.58,90,98,2.13,TZ,1714970176
376,bad reichenhall,47.7333,12.8833,12.63,92,20,2.57,DE,1714970176
377,lushun,38.8,121.2667,15.12,70,100,7.4,CN,1714970177
378,tobelo,1.7284,128.0095,29.71,66,91,2.04,ID,1714970177
379,gorontalo,0.5412,123.0595,32.3,61,61,2.38,ID,1714970177
380,kodinsk,58.6881,99.1844,19.13,65,100,5.34,RU,1714969940
381,pokhara,28.2333,83.9833,28.13,21,23,3.08,NP,1714969683
382,poronaysk,49.2167,143.1167,1.67,88,100,4.88,RU,1714970177
383,fort st. john,56.2499,-120.8529,12.94,33,40,5.14,CA,1714969931
384,atherton,53.5237,-2.4935,10.94,89,100,0.91,GB,1714970178
385,bismarck,46.8083,-100.7837,14.25,61,0,9.26,US,1714970100
386,robertsport,6.7533,-11.3686,27.41,82,100,3.13,LR,1714970178
387,saint john,45.2727,-66.0677,6.0,100,100,6.69,CA,1714970130
388,harper,4.375,-7.7169,27.64,80,85,1.8,LR,1714970178
389,micco,27.8806,-80.5003,26.14,84,0,0.89,US,1714970179
390,ponta delgada,37.7333,-25.6667,18.44,94,75,5.14,PT,1714970179
391,general acha,-37.377,-64.6043,10.66,47,59,3.49,AR,1714970179
392,new norfolk,-42.7826,147.0587,16.07,49,36,0.95,AU,1714970179
393,mejit,10.2753,170.8646,27.88,77,97,7.67,MH,1714970179
394,suez,29.9737,32.5263,18.1,65,0,2.41,EG,1714970179
395,miller place,40.9598,-72.9962,12.55,94,100,3.09,US,1714970180
396,mount pearl,47.5166,-52.7813,0.19,93,0,5.66,CA,1714970028
397,acarau,-2.8856,-40.12,25.31,92,100,4.01,BR,1714970180
398,greymouth,-42.4667,171.2,11.18,74,75,1.48,NZ,1714970180
399,yarega,63.4354,53.5765,-2.85,94,100,2.52,RU,1714970180
400,east london,-33.0153,27.9116,22.52,40,0,6.17,ZA,1714970180
401,sidi bel abbes,35.1899,-0.6309,15.5,43,100,2.35,DZ,1714970181
402,colonia,50.9333,6.95,13.31,85,40,1.03,DE,1714970142
403,bengkulu,-3.8004,102.2655,29.87,71,20,3.49,ID,1714970181
404,cobija,-11.0267,-68.7692,23.99,92,9,0.81,BO,1714970181
405,murun-kuren,49.6342,100.1625,22.19,20,12,1.61,MN,1714970181
406,floro,61.5996,5.0328,9.04,93,100,1.54,NO,1714970181
407,yucca valley,34.1142,-116.4322,15.13,37,3,0.45,US,1714970181
408,magadan,59.5667,150.8,3.07,75,17,1.74,RU,1714970182
409,san antonio,29.4241,-98.4936,24.48,91,100,4.12,US,1714969999
410,las tablas,7.7667,-80.2833,25.1,99,83,1.43,PA,1714970182
411,bubaque,11.2833,-15.8333,26.28,66,11,3.27,GW,1714970182
412,rutland,43.6167,-73.0162,10.69,96,100,3.13,US,1714970081
413,burang,30.25,81.1667,4.38,46,27,2.96,CN,1714970182
414,gejiu,23.306,103.1635,22.98,49,64,3.34,CN,1714970182
415,walkersville,39.4862,-77.3519,18.97,85,100,1.43,US,1714970118
416,trairi,-3.2778,-39.2689,24.4,95,100,3.07,BR,1714969939
417,pangoa,-12.1167,-73.0,22.45,94,65,0.6,PE,1714970183
418,ayaviri,-14.8864,-70.5889,7.79,67,63,0.94,PE,1714970183
419,yishui,35.7847,118.6281,17.22,64,96,3.83,CN,1714970183
420,illizi,26.4833,8.4667,25.89,39,100,2.72,DZ,1714970183
421,kerema,-7.9631,145.7785,28.34,85,66,2.03,PG,1714970184
422,nova floresta,-6.4553,-36.2033,19.25,96,64,4.75,BR,1714970184
423,mohr,54.3528,9.7167,10.58,89,75,3.09,DE,1714970184
424,iquique,-20.2208,-70.1431,18.02,83,73,0.69,CL,1714969924
425,aljezur,37.3191,-8.8033,14.21,97,84,2.28,PT,1714970184
426,stettler,52.3168,-112.7186,7.86,100,100,2.06,CA,1714970184
427,marion,39.7684,-86.1555,18.11,72,75,3.6,US,1714970185
428,geraldton,-28.7667,114.6,24.23,50,0,6.69,AU,1714969885
429,uren',57.4552,45.7852,0.93,90,100,6.43,RU,1714970185
430,noyabrsk,63.1994,75.4507,-2.09,92,99,8.94,RU,1714970185
431,savanna-la-mar,18.219,-78.1332,26.97,89,0,1.57,JM,1714970185
432,nanyuki,0.0167,37.0728,16.28,89,100,2.89,KE,1714970185
433,bodaybo,57.8506,114.1933,16.05,61,92,1.22,RU,1714970185
434,salur,18.5333,83.2167,39.49,30,0,2.86,IN,1714970186
435,inderbor,48.55,51.7833,14.33,23,20,4.07,KZ,1714970186
436,malanje,-9.5402,16.341,14.43,75,44,1.6,AO,1714970186
437,vila franca do campo,37.7167,-25.4333,18.27,99,100,3.8,PT,1714970186
438,galesong,-5.3166,119.3661,31.01,75,96,4.43,ID,1714970186
439,ramhormoz,31.28,49.6035,24.81,53,99,1.68,IR,1714970186
440,akalkot,17.5333,76.2167,37.53,22,0,4.83,IN,1714970112
441,kazanskoye,55.6448,69.235,6.47,40,2,5.49,RU,1714970187
442,palmerston north,-40.35,175.6167,14.86,82,5,0.89,NZ,1714970187
443,santa ana,33.7456,-117.8678,17.08,75,0,3.6,US,1714970187
444,pirai,-22.6292,-43.8981,20.49,93,67,1.56,BR,1714970187
445,selfoss,63.9331,-20.9971,2.8,76,87,5.14,IS,1714970187
446,nouadhibou,20.931,-17.0347,17.45,90,37,8.94,MR,1714970187
447,narasaraopet,16.25,80.0667,39.06,38,0,4.55,IN,1714970188
448,mournies,35.4764,24.0092,25.04,88,20,2.06,GR,1714970188
449,perbaungan,3.5679,98.956,36.76,56,48,1.97,ID,1714970188
450,maamba,-17.3667,27.15,18.12,57,18,0.64,ZM,1714970188
451,baiyin,36.5583,104.2081,20.86,13,22,2.92,CN,1714970188
452,angra do heroismo,38.65,-27.2167,18.34,100,75,7.42,PT,1714970188
453,ziway,7.9333,38.7167,21.79,66,99,2.83,ET,1714970189
454,enriquillo,17.9,-71.2333,24.8,82,42,3.86,DO,1714970189
455,boca chica,18.4537,-69.6111,26.87,94,40,2.06,DO,1714969991
456,tezpur,26.6333,92.8,32.55,29,94,5.2,IN,1714970189
457,challapata,-18.9,-66.7667,8.0,32,32,0.97,BO,1714970189
458,gongchangling,41.1167,123.45,12.85,89,100,5.45,CN,1714970189
459,zavoronezhskoye,52.8801,40.5526,7.17,67,19,2.93,RU,1714970190
460,shevchenko,48.5,35.0,13.92,54,49,5.32,UA,1714970190
461,santa sylvina,-27.8326,-61.1375,22.81,81,100,2.07,AR,1714970190
462,bahir dar,11.5936,37.3908,23.18,25,4,0.84,ET,1714970190
463,ola,59.5833,151.2833,3.41,73,24,2.22,RU,1714970190
464,langsa,4.4683,97.9683,36.27,43,20,0.95,ID,1714970190
465,al bayda',32.7627,21.7551,12.0,87,0,1.47,LY,1714970191
466,barcelos,41.5388,-8.6151,12.14,96,3,1.55,PT,1714970191
467,torrington,41.8007,-73.1212,9.92,96,100,1.49,US,1714970034
468,severo-yeniseyskiy,60.3725,93.0408,5.88,86,100,3.58,RU,1714970191
469,ishigaki,24.3448,124.1572,26.07,94,75,5.14,JP,1714970192
470,dauphin,51.1494,-100.0502,12.08,54,0,5.66,CA,1714970192
471,lively,46.4334,-81.1498,10.51,75,0,2.67,CA,1714970192
472,pativilca,-10.7,-77.7833,18.98,89,77,3.38,PE,1714970192
473,codajas,-3.8367,-62.0569,24.21,98,60,0.84,BR,1714970192
474,callao,-12.0667,-77.15,20.95,82,0,5.66,PE,1714970192
475,muana,-1.5283,-49.2167,24.55,96,96,1.39,BR,1714970192
476,khandyga,62.6667,135.6,4.34,97,100,1.89,RU,1714970193
477,hoemul-li,41.4339,129.67,9.09,96,100,2.74,KP,1714970193
478,saldanha,-33.0117,17.9442,14.03,91,81,6.2,ZA,1714970193
479,kirakira,-10.4544,161.9205,29.24,80,81,3.53,SB,1714970193
480,iwanai,42.9744,140.5089,13.45,86,100,3.63,JP,1714970193
481,rajpura,30.4831,76.595,38.59,15,0,3.8,IN,1714970193
482,la gi,10.6667,107.7833,32.34,59,60,6.27,VN,1714970194
483,bandarbeyla,9.4942,50.8122,29.36,72,100,2.57,SO,1714970194
484,murghob,38.1702,73.9667,1.03,48,9,2.33,TJ,1714970194
485,pau brasil,-15.4642,-39.6511,19.86,99,37,0.58,BR,1714970194
486,kavaratti,10.5669,72.642,29.66,66,45,2.47,IN,1714970194
487,prince albert,53.2001,-105.7677,12.97,41,100,4.63,CA,1714970187
488,kashima-shi,35.9654,140.6447,23.0,56,99,7.17,JP,1714970194
489,paranhos,-23.8928,-55.4311,24.37,41,0,3.9,BR,1714970195
490,sukuta,13.4103,-16.7082,23.01,88,75,4.12,GM,1714970195
491,raja,8.4596,25.678,26.8,41,0,1.41,SS,1714970195
492,saipan,15.1355,145.701,33.39,55,40,6.17,MP,1714970195
493,vadippatti,10.0833,77.95,34.64,40,76,1.37,IN,1714970195
494,ghanzi,-21.5667,21.7833,15.33,47,0,2.92,BW,1714970195
495,ulan bator,47.9077,106.8832,20.07,19,0,3.0,MN,1714969910
496,gaogou,34.0175,119.1886,19.85,60,89,4.08,CN,1714970196
497,eyl,7.9803,49.8164,29.13,73,100,2.46,SO,1714970196
498,la'ie,21.6477,-157.9253,26.98,79,100,2.24,US,1714970196
499,pyhajarvi,67.0701,27.2176,-3.6,91,51,2.46,FI,1714970196
500,enumclaw,47.2043,-121.9915,8.79,92,100,1.79,US,1714970196
501,prado,-17.3411,-39.2208,24.08,88,18,0.59,BR,1714970196
502,zapolyarnyy,69.4154,30.8136,-1.4,97,100,5.68,RU,1714970197
503,kingaroy,-26.5333,151.8333,21.93,55,8,2.97,AU,1714970197
504,ulldecona,40.5973,0.4472,18.75,69,85,0.68,ES,1714970197
505,ambovombe,-25.1667,46.0833,20.39,66,0,3.26,MG,1714970197
506,dryden,49.7833,-92.7503,9.16,57,0,3.09,CA,1714970184
507,leona vicario,20.9667,-87.1917,27.93,96,7,1.61,MX,1714970197
508,kondratovo,57.9804,56.1066,0.16,93,75,6.0,RU,1714970197
509,galesburg,40.9478,-90.3712,14.88,65,0,2.06,US,1714970101
510,yeonil,35.9942,129.345,24.01,62,78,5.17,KR,1714970198
511,peterborough,52.5736,-0.2478,11.27,93,75,0.51,GB,1714970198
512,gombong,-7.6072,109.5142,30.89,57,11,4.37,ID,1714970198
513,arkhangel'sk,64.5401,40.5433,0.06,69,40,4.0,RU,1714970198
514,palora,-1.7,-77.9333,19.44,90,99,0.78,EC,1714970198
515,zhigalovo,54.8097,105.1578,24.13,24,89,5.51,RU,1714970199
516,saint-denis,48.9167,2.3333,13.43,93,75,5.14,FR,1714970037
517,flin flon,54.7682,-101.865,7.73,66,41,2.8,CA,1714970199
518,edson,53.5835,-116.4356,13.08,41,75,2.57,CA,1714970199
519,aibak,36.2647,68.0155,24.73,35,39,1.01,AF,1714970199
520,sundarnagar,31.5333,76.8833,32.26,19,0,2.11,IN,1714970199
521,aktau,43.65,51.2,13.32,62,100,5.78,KZ,1714970200
522,kingston,17.997,-76.7936,28.53,74,40,2.57,JM,1714970041
523,helena valley west central,46.6629,-112.0604,12.49,65,40,4.92,US,1714970200
524,yanchep,-31.55,115.6833,22.85,52,0,3.93,AU,1714970200
525,huazhou,21.6333,110.5833,30.42,68,92,4.24,CN,1714970200
526,calvinia,-31.4707,19.776,12.72,41,0,2.01,ZA,1714970200
527,carolina beach,34.0352,-77.8936,22.79,92,4,5.35,US,1714970201
528,saratoga springs,43.0831,-73.7846,11.06,97,100,2.14,US,1714970201
529,tadine,-21.55,167.8833,23.21,58,89,5.54,NC,1714970201
530,mao,39.8885,4.2658,16.31,100,75,3.09,ES,1714970201
531,pauini,-7.7136,-66.9764,23.94,92,49,0.48,BR,1714970201
532,birjand,32.8663,59.2211,22.26,37,0,5.14,IR,1714970201
533,baoqing,46.3317,132.2111,14.63,37,100,9.62,CN,1714970202
534,dickinson,29.4608,-95.0513,24.46,93,100,3.09,US,1714969945
535,kirensk,57.7853,108.1119,19.98,41,99,6.26,RU,1714970121
536,villa berthet,-27.2917,-60.4126,23.84,77,100,4.3,AR,1714970202
537,afaahiti,-17.75,-149.2833,27.93,87,51,10.18,PF,1714970202
538,kaga bandoro,6.9896,19.1874,24.19,54,2,1.43,CF,1714970202
539,oriximina,-1.7656,-55.8661,25.06,95,99,1.68,BR,1714970202
540,santa elena de uairen,4.6167,-61.1333,19.78,91,88,1.7,VE,1714970203
541,taksimo,56.3444,114.8794,19.48,28,47,0.68,RU,1714970203
542,levuka,50.1834,-105.4011,14.84,55,100,9.42,CA,1714970203
543,kenora,49.8167,-94.4337,10.54,53,40,2.06,CA,1714970181
544,vila velha,-20.3297,-40.2925,26.97,78,75,4.12,BR,1714969808
545,fonte boa,-2.4959,-66.2662,24.03,99,100,0.39,BR,1714970203
546,chirilagua,13.2203,-88.1386,24.93,88,27,0.85,SV,1714970204
547,targu secuiesc,46.0,26.1333,11.85,81,10,0.5,RO,1714970204
548,el burgo de osma,41.5862,-3.0652,8.97,91,100,4.31,ES,1714970204
549,aleksandrov gay,50.147,48.5704,11.75,43,74,8.16,RU,1714970204
550,chernyshevskiy,63.0128,112.4714,2.53,98,100,4.31,RU,1714970204
551,sergeyevka,53.88,67.4158,9.31,34,2,5.93,KZ,1714970205
552,at taj,24.2049,23.2857,20.05,26,0,3.62,LY,1714970205
553,camana,-16.6228,-72.7111,20.08,89,95,2.67,PE,1714970205
554,cave spring,37.2276,-80.0128,18.96,95,81,1.07,US,1714970205
555,codrington,-38.2667,141.9667,15.38,64,10,6.2,AU,1714970205
556,mata-utu,-13.2816,-176.1745,29.64,77,71,5.33,WF,1714970205
557,sabinanigo,42.5192,-0.3661,8.18,95,62,1.09,ES,1714970205
558,port blair,11.6667,92.75,35.02,55,40,3.09,IN,1714970206
559,quellon,-43.1167,-73.6167,4.86,92,99,2.23,CL,1714970206
560,san antonio de pale,-1.4014,5.6325,27.96,85,83,5.53,GQ,1714970206
561,villa madero,19.4,-101.2667,19.7,36,81,1.48,MX,1714970206
562,marsh harbour,26.5412,-77.0636,23.89,69,2,6.97,BS,1714970206
563,novodvinsk,64.4165,40.8122,-0.14,86,69,4.09,RU,1714970206
564,papao,-17.75,-149.55,28.82,83,5,10.32,PF,1714970206
565,sittwe,20.15,92.9,31.75,62,53,4.55,MM,1714970207
566,port augusta,-32.5,137.7667,22.19,35,0,6.16,AU,1714970207
567,sferracavallo,42.726,12.0956,14.1,69,74,1.32,IT,1714970207
568,grand falls-windsor,48.9332,-55.6649,5.28,84,89,1.83,CA,1714970207
569,ambon,-3.6954,128.1814,29.08,84,40,1.54,ID,1714970207
570,umbauba,-11.3833,-37.6578,22.6,99,86,0.72,BR,1714970207
571,kavieng,-2.5744,150.7967,29.91,69,100,1.97,PG,1714970208
572,wanxian,30.8039,108.3897,29.02,50,72,1.92,CN,1714970208
573,alekseyevskoye,55.3071,50.1135,5.49,95,100,8.34,RU,1714970208
574,ephrata,40.1798,-76.1788,16.02,85,100,3.09,US,1714970208
575,khanbari,27.3747,87.2039,32.43,23,0,2.98,NP,1714970208
576,farias brito,-6.9306,-39.5656,23.38,67,100,1.54,BR,1714970209
577,dakoro,14.5106,6.765,28.51,16,0,5.09,NE,1714970209
578,khagrachhari,23.1,91.9667,31.05,67,59,1.93,BD,1714970209
579,warner robins,32.621,-83.5999,20.97,94,0,0.0,US,1714970209
580,ciudad lazaro cardenas,17.9583,-102.2,23.72,83,93,1.29,MX,1714970098
581,turpan,42.9333,89.1667,36.38,5,2,2.47,CN,1714970209
582,arraial do cabo,-22.9661,-42.0278,23.91,90,81,8.77,BR,1714970210
583,zadar,44.1197,15.2422,10.34,100,0,2.57,HR,1714969846
584,howard springs,-12.497,131.047,33.79,57,7,3.26,AU,1714970210
585,okhotsk,59.3833,143.3,3.98,79,46,3.74,RU,1714969940
586,dul'durga,50.6761,113.5931,17.85,35,46,3.67,RU,1714970210
587,san sebastian de la gomera,28.0916,-17.1133,18.54,77,0,1.03,ES,1714970210
